[{"slug":"ararangua","nome":"Araranguá","n_pontos":1,"n_proprias":1,"n_improprias":0,"n_sem_dados":0,"pct_proprias":100.0,"lat":-28.9438,"lon":-49.3621},{"slug":"balneario_arroio_do_silva","nome":"Balneário  Arroio Do Silva","n_pontos":6,"n_proprias":5,"n_improprias":1,"n_sem_dados":0,"pct_proprias":83.3,"lat":-28.9888,"lon":-49.4119},{"slug":"balneario_gaivota","nome":"Balneário  Gaivota","n_pontos":7,"n_proprias":6,"n_improprias":1,"n_sem_dados":0,"pct_proprias":85.7,"lat":-29.1632,"lon":-49.579},{"slug":"balneario_camboriu","nome":"Balneário Camboriú","n_pontos":15,"n_proprias":14,"n_improprias":1,"n_sem_dados":0,"pct_proprias":93.3,"lat":-27.0013,"lon":-48.6114},{"slug":"balneario_da_barra_do_sul","nome":"Balneário Da Barra Do Sul","n_pontos":3,"n_proprias":2,"n_improprias":1,"n_sem_dados":0,"pct_proprias":66.7,"lat":-26.4557,"lon":-48.6113},{"slug":"balneario_picarras","nome":"Balneário Piçarras","n_pontos":2,"n_proprias":2,"n_improprias":0,"n_sem_dados":0,"pct_proprias":100.0,"lat":-26.7628,"lon":-48.6714},{"slug":"balneario_rincao","nome":"Balneário Rincão","n_pontos":8,"n_proprias":5,"n_improprias":3,"n_sem_dados":0,"pct_proprias":62.5,"lat":-28.833,"lon":-49.242},{"slug":"barra_velha","nome":"Barra Velha","n_pontos":5,"n_proprias":2,"n_improprias":3,"n_sem_dados":0,"pct_proprias":40.0,"lat":-26.6467,"lon":-48.6815},{"slug":"biguacu","nome":"Biguaçú","n_pontos":1,"n_proprias":0,"n_improprias":1,"n_sem_dados":0,"pct_proprias":0.0,"lat":-27.4523,"lon":-48.6331},{"slug":"bombinhas","nome":"Bombinhas","n_pontos":17,"n_proprias":12,"n_improprias":5,"n_sem_dados":0,"pct_proprias":70.6,"lat":-27.1672,"lon":-48.5002},{"slug":"florianopolis","nome":"Florianópolis","n_pontos":88,"n_proprias":64,"n_improprias":24,"n_sem_dados":0,"pct_proprias":72.7,"lat":-27.5401,"lon":-48.4827},{"slug":"garopaba","nome":"Garopaba","n_pontos":5,"n_proprias":4,"n_improprias":1,"n_sem_dados":0,"pct_proprias":80.0,"lat":-28.0244,"lon":-48.6208},{"slug":"governador_celso_ramos","nome":"Governador Celso Ramos","n_pontos":22,"n_proprias":16,"n_improprias":6,"n_sem_dados":0,"pct_proprias":72.7,"lat":-27.3526,"lon":-48.548},{"slug":"imbituba","nome":"Imbituba","n_pontos":8,"n_proprias":7,"n_improprias":1,"n_sem_dados":0,"pct_proprias":87.5,"lat":-28.1983,"lon":-48.6605},{"slug":"itajai","nome":"Itajaí","n_pontos":5,"n_proprias":4,"n_improprias":1,"n_sem_dados":0,"pct_proprias":80.0,"lat":-26.9402,"lon":-48.632},{"slug":"itapema","nome":"Itapema","n_pontos":9,"n_proprias":7,"n_improprias":2,"n_sem_dados":0,"pct_proprias":77.8,"lat":-27.1081,"lon":-48.6038},{"slug":"itapoa","nome":"Itapoá","n_pontos":6,"n_proprias":6,"n_improprias":0,"n_sem_dados":0,"pct_proprias":100.0,"lat":-26.0783,"lon":-48.6012},{"slug":"jaguaruna","nome":"Jaguaruna","n_pontos":3,"n_proprias":3,"n_improprias":0,"n_sem_dados":0,"pct_proprias":100.0,"lat":-28.6664,"lon":-48.9651},{"slug":"joinville","nome":"Joinville","n_pontos":1,"n_proprias":1,"n_improprias":0,"n_sem_dados":0,"pct_proprias":100.0,"lat":-26.2245,"lon":-48.7664},{"slug":"laguna","nome":"Laguna","n_pontos":7,"n_proprias":7,"n_improprias":0,"n_sem_dados":0,"pct_proprias":100.0,"lat":-28.4948,"lon":-48.78},{"slug":"navegantes","nome":"Navegantes","n_pontos":4,"n_proprias":2,"n_improprias":2,"n_sem_dados":0,"pct_proprias":50.0,"lat":-26.8497,"lon":-48.6302},{"slug":"palhoca","nome":"Palhoça","n_pontos":7,"n_proprias":4,"n_improprias":3,"n_sem_dados":0,"pct_proprias":57.1,"lat":-27.8314,"lon":-48.6033},{"slug":"passo_de_torres","nome":"Passo De Torres","n_pontos":2,"n_proprias":1,"n_improprias":1,"n_sem_dados":0,"pct_proprias":50.0,"lat":-29.3248,"lon":-49.7147},{"slug":"paulo_lopes","nome":"Paulo Lopes","n_pontos":1,"n_proprias":1,"n_improprias":0,"n_sem_dados":0,"pct_proprias":100.0,"lat":-27.9059,"lon":-48.5884},{"slug":"penha","nome":"Penha","n_pontos":11,"n_proprias":5,"n_improprias":6,"n_sem_dados":0,"pct_proprias":45.5,"lat":-26.7836,"lon":-48.6252},{"slug":"porto_belo","nome":"Porto Belo","n_pontos":6,"n_proprias":6,"n_improprias":0,"n_sem_dados":0,"pct_proprias":100.0,"lat":-27.153,"lon":-48.5599},{"slug":"sao_francisco_do_sul","nome":"São Francisco Do Sul","n_pontos":9,"n_proprias":8,"n_improprias":1,"n_sem_dados":0,"pct_proprias":88.9,"lat":-26.2162,"lon":-48.546},{"slug":"sao_jose","nome":"São José","n_pontos":1,"n_proprias":0,"n_improprias":1,"n_sem_dados":0,"pct_proprias":0.0,"lat":-27.6375,"lon":-48.6311}]