[{"slug":"ararangua","nome":"Araranguá","n_pontos":1,"n_proprias":1,"n_improprias":0,"n_sem_dados":0,"pct_proprias":100.0,"lat":-28.9433,"lon":-49.3627},{"slug":"balneario_arroio_do_silva","nome":"Balneário  Arroio Do Silva","n_pontos":6,"n_proprias":5,"n_improprias":1,"n_sem_dados":0,"pct_proprias":83.3,"lat":-28.9885,"lon":-49.4123},{"slug":"balneario_gaivota","nome":"Balneário  Gaivota","n_pontos":7,"n_proprias":6,"n_improprias":1,"n_sem_dados":0,"pct_proprias":85.7,"lat":-29.1631,"lon":-49.5794},{"slug":"balneario_camboriu","nome":"Balneário Camboriú","n_pontos":15,"n_proprias":14,"n_improprias":1,"n_sem_dados":0,"pct_proprias":93.3,"lat":-27.0015,"lon":-48.6116},{"slug":"balneario_da_barra_do_sul","nome":"Balneário Da Barra Do Sul","n_pontos":3,"n_proprias":2,"n_improprias":1,"n_sem_dados":0,"pct_proprias":66.7,"lat":-26.4557,"lon":-48.6114},{"slug":"balneario_picarras","nome":"Balneário Piçarras","n_pontos":2,"n_proprias":2,"n_improprias":0,"n_sem_dados":0,"pct_proprias":100.0,"lat":-26.7627,"lon":-48.6711},{"slug":"balneario_rincao","nome":"Balneário Rincão","n_pontos":8,"n_proprias":5,"n_improprias":3,"n_sem_dados":0,"pct_proprias":62.5,"lat":-28.8326,"lon":-49.2424},{"slug":"barra_velha","nome":"Barra Velha","n_pontos":5,"n_proprias":2,"n_improprias":3,"n_sem_dados":0,"pct_proprias":40.0,"lat":-26.6466,"lon":-48.6818},{"slug":"biguacu","nome":"Biguaçú","n_pontos":1,"n_proprias":0,"n_improprias":1,"n_sem_dados":0,"pct_proprias":0.0,"lat":-27.4522,"lon":-48.6333},{"slug":"bombinhas","nome":"Bombinhas","n_pontos":17,"n_proprias":12,"n_improprias":5,"n_sem_dados":0,"pct_proprias":70.6,"lat":-27.1673,"lon":-48.5004},{"slug":"florianopolis","nome":"Florianópolis","n_pontos":88,"n_proprias":64,"n_improprias":24,"n_sem_dados":0,"pct_proprias":72.7,"lat":-27.5401,"lon":-48.4828},{"slug":"garopaba","nome":"Garopaba","n_pontos":5,"n_proprias":4,"n_improprias":1,"n_sem_dados":0,"pct_proprias":80.0,"lat":-28.0243,"lon":-48.6208},{"slug":"governador_celso_ramos","nome":"Governador Celso Ramos","n_pontos":22,"n_proprias":16,"n_improprias":6,"n_sem_dados":0,"pct_proprias":72.7,"lat":-27.3527,"lon":-48.5483},{"slug":"imbituba","nome":"Imbituba","n_pontos":8,"n_proprias":7,"n_improprias":1,"n_sem_dados":0,"pct_proprias":87.5,"lat":-28.1982,"lon":-48.6612},{"slug":"itajai","nome":"Itajaí","n_pontos":5,"n_proprias":4,"n_improprias":1,"n_sem_dados":0,"pct_proprias":80.0,"lat":-26.9401,"lon":-48.6324},{"slug":"itapema","nome":"Itapema","n_pontos":9,"n_proprias":7,"n_improprias":2,"n_sem_dados":0,"pct_proprias":77.8,"lat":-27.1082,"lon":-48.6042},{"slug":"itapoa","nome":"Itapoá","n_pontos":6,"n_proprias":6,"n_improprias":0,"n_sem_dados":0,"pct_proprias":100.0,"lat":-26.0787,"lon":-48.6009},{"slug":"jaguaruna","nome":"Jaguaruna","n_pontos":3,"n_proprias":3,"n_improprias":0,"n_sem_dados":0,"pct_proprias":100.0,"lat":-28.6657,"lon":-48.9655},{"slug":"joinville","nome":"Joinville","n_pontos":1,"n_proprias":1,"n_improprias":0,"n_sem_dados":0,"pct_proprias":100.0,"lat":-26.2245,"lon":-48.7668},{"slug":"laguna","nome":"Laguna","n_pontos":7,"n_proprias":7,"n_improprias":0,"n_sem_dados":0,"pct_proprias":100.0,"lat":-28.4947,"lon":-48.7807},{"slug":"navegantes","nome":"Navegantes","n_pontos":4,"n_proprias":2,"n_improprias":2,"n_sem_dados":0,"pct_proprias":50.0,"lat":-26.8495,"lon":-48.6302},{"slug":"palhoca","nome":"Palhoça","n_pontos":7,"n_proprias":4,"n_improprias":3,"n_sem_dados":0,"pct_proprias":57.1,"lat":-27.8311,"lon":-48.6039},{"slug":"passo_de_torres","nome":"Passo De Torres","n_pontos":2,"n_proprias":1,"n_improprias":1,"n_sem_dados":0,"pct_proprias":50.0,"lat":-29.3244,"lon":-49.7146},{"slug":"paulo_lopes","nome":"Paulo Lopes","n_pontos":1,"n_proprias":1,"n_improprias":0,"n_sem_dados":0,"pct_proprias":100.0,"lat":-27.9055,"lon":-48.5896},{"slug":"penha","nome":"Penha","n_pontos":11,"n_proprias":5,"n_improprias":6,"n_sem_dados":0,"pct_proprias":45.5,"lat":-26.7837,"lon":-48.625},{"slug":"porto_belo","nome":"Porto Belo","n_pontos":6,"n_proprias":6,"n_improprias":0,"n_sem_dados":0,"pct_proprias":100.0,"lat":-27.1536,"lon":-48.5612},{"slug":"sao_francisco_do_sul","nome":"São Francisco Do Sul","n_pontos":9,"n_proprias":8,"n_improprias":1,"n_sem_dados":0,"pct_proprias":88.9,"lat":-26.2164,"lon":-48.5459},{"slug":"sao_jose","nome":"São José","n_pontos":1,"n_proprias":0,"n_improprias":1,"n_sem_dados":0,"pct_proprias":0.0,"lat":-27.6374,"lon":-48.6312}]